City_ID,City,Cloudiness,Country,Date,Humidity,Lat,Lng,Max Temp,Wind Speed
0,torbay,90,CA,1524967200,100,47.66,-52.73,59.0,19.46
1,broome,92,GB,1524967560,93,52.47,1.45,44.6,6.93
2,tiksi,8,RU,1524969484,92,71.64,128.87,13.58,4.74
3,yeppoon,0,AU,1524967200,39,-23.13,150.74,80.6,12.75
4,vardo,75,US,1524968100,53,39.62,-77.74,57.2,13.87
5,hithadhoo,20,MV,1524969484,100,-0.6,73.08,82.7,15.82
6,lompoc,1,US,1524967080,71,34.64,-120.46,59.0,16.11
7,ushuaia,20,AR,1524967200,65,-54.81,-68.31,41.0,16.49
8,ancud,32,CL,1524969486,76,-41.87,-73.83,43.64,8.66
9,punta arenas,40,CL,1524967200,80,-53.16,-70.91,39.2,20.8
10,cherskiy,48,RU,1524969487,85,68.75,161.3,34.01,1.72
11,qaanaaq,80,GL,1524969487,87,77.48,-69.36,12.95,17.38
12,butaritari,64,KI,1524969487,100,3.07,172.79,83.33,6.98
13,jamestown,0,AU,1524969488,40,-33.21,138.6,69.2,8.88
14,tasiilaq,0,GL,1524966600,80,65.61,-37.64,30.2,4.7
15,fare,44,PF,1524969488,100,-16.7,-151.02,82.61,6.76
16,padang,0,ID,1524969489,100,-0.92,100.36,83.6,5.64
17,bambous virieux,75,MU,1524967200,57,-20.34,57.76,77.0,11.41
18,bredasdorp,88,ZA,1524969490,100,-34.53,20.04,55.97,6.2
19,sao filipe,44,CV,1524969490,99,14.9,-24.5,70.73,16.26
20,lebu,12,ET,1524969491,85,8.96,38.73,43.82,2.62
21,chuy,64,UY,1524969491,98,-33.69,-53.46,69.83,5.97
22,mar del plata,0,AR,1524969491,100,-46.43,-67.52,34.01,7.43
23,mandurah,0,AU,1524967200,36,-32.55,115.7,78.8,21.92
24,de land,1,US,1524966960,42,40.12,-88.65,50.0,10.29
25,rikitea,0,PF,1524969492,100,-23.12,-134.97,78.29,6.76
26,barcelos,75,PT,1524967200,93,41.53,-8.62,48.2,2.24
27,mataura,88,NZ,1524969493,92,-46.19,168.86,51.02,12.91
28,terrace bay,0,CA,1524969493,93,48.78,-87.1,32.57,10.22
29,port elizabeth,75,US,1524967800,63,39.31,-74.98,60.8,9.17
30,georgetown,90,GY,1524967200,100,6.8,-58.16,75.2,4.7
31,talnakh,92,RU,1524969495,100,69.49,88.39,32.39,11.68
32,bluff,0,AU,1524969496,30,-23.58,149.07,82.61,11.45
33,saint-leu,20,RE,1524967200,60,-21.15,55.28,73.4,8.05
34,busselton,0,AU,1524969496,82,-33.64,115.35,73.79,20.07
35,longyearbyen,75,NO,1524966600,73,78.22,15.63,24.8,8.05
36,cape town,0,ZA,1524967200,93,-33.93,18.42,50.0,5.82
37,faanui,8,PF,1524969497,100,-16.48,-151.75,82.52,6.76
38,castro,0,CL,1524969498,97,-42.48,-73.76,42.02,8.43
39,vaini,0,IN,1524969498,76,15.34,74.49,79.19,3.18
40,olinda,75,EC,1524967200,74,-2.03,-79.75,80.6,4.7
41,albany,90,US,1524968040,93,42.65,-73.75,53.6,4.7
42,puerto ayora,8,EC,1524969500,98,-0.74,-90.35,76.94,6.64
43,vostok,68,RU,1524969500,45,46.45,135.83,61.64,6.64
44,bushehr,40,IR,1524967200,53,28.97,50.84,75.2,6.93
45,biltine,0,TD,1524969501,23,14.53,20.93,69.56,10.89
46,salinas,75,US,1524967620,71,36.67,-121.66,60.8,10.29
47,kouqian,24,CN,1524969502,45,43.66,126.5,77.84,18.16
48,yichun,92,CN,1524969502,100,47.72,128.88,40.94,6.98
49,upernavik,64,GL,1524969503,89,72.79,-56.15,14.66,22.64
50,pereslavl-zalesskiy,8,RU,1524969503,70,56.74,38.86,42.56,9.22
51,puerto madryn,48,AR,1524969273,92,-42.77,-65.04,52.73,11.01
52,saint-philippe,90,CA,1524968640,71,45.36,-73.48,50.0,6.93
53,komsomolskiy,48,RU,1524969505,94,67.55,63.78,25.19,12.46
54,midland,0,US,1524968100,26,32.0,-102.08,78.8,13.87
55,barrow,88,AR,1524969505,81,-38.31,-60.23,54.35,5.75
56,yumen,0,CN,1524969506,34,40.29,97.04,64.07,25.32
57,stromness,90,CA,1524966840,86,42.87,-79.55,37.4,8.05
58,hobart,20,AU,1524967200,33,-42.88,147.33,62.6,8.05
59,wahiawa,20,US,1524967020,60,21.5,-158.02,77.0,13.87
60,hermanus,88,ZA,1524969507,89,-34.42,19.24,42.56,2.39
61,danilovka,8,RU,1524969508,77,50.35,44.12,45.35,8.77
62,narsaq,44,GL,1524966600,74,60.91,-46.05,33.8,9.17
63,kyshtovka,0,RU,1524969508,72,56.56,76.62,52.55,7.65
64,paamiut,80,GL,1524969509,100,61.99,-49.67,27.08,12.46
65,lagoa,20,PT,1524967200,81,37.14,-8.45,51.8,11.41
66,crib point,92,AU,1524969510,97,-38.35,145.2,61.37,6.98
67,barra da estiva,76,BR,1524969510,93,-13.63,-41.33,67.85,3.62
68,saint anthony,1,US,1524966960,25,43.97,-111.68,62.6,9.17
69,inhambane,0,MZ,1524969510,100,-23.87,35.38,67.13,5.64
70,port alfred,0,ZA,1524969511,100,-33.59,26.89,57.77,7.43
71,marathon,0,CA,1524969511,77,48.72,-86.38,29.96,4.97
72,pangobilian,56,PH,1524969512,90,8.8,117.86,84.77,0.72
73,sherlovaya gora,92,RU,1524969512,39,50.53,116.31,47.69,13.47
74,pedernales,12,EC,1524969512,96,0.07,-80.05,72.44,3.62
75,tura,100,IN,1524969513,100,25.52,90.21,67.94,3.96
76,rio gallegos,0,AR,1524967200,56,-51.62,-69.22,42.8,19.46
77,kalevala,0,FI,1524969513,76,64.12,29.58,26.27,3.51
78,atuona,0,PF,1524969514,100,-9.8,-139.03,81.53,14.7
79,geraldton,20,CA,1524967200,54,49.72,-86.95,30.2,2.24
80,bonthe,32,SL,1524969514,95,7.53,-12.5,79.28,3.62
81,tabou,12,CI,1524969515,100,4.42,-7.36,82.52,10.67
82,kodiak,1,US,1524966780,38,39.95,-94.76,59.0,5.82
83,sisimiut,64,GL,1524969516,100,66.94,-53.67,9.89,10.0
84,pangody,56,RU,1524969516,97,65.85,74.49,35.99,11.12
85,guerrero negro,0,MX,1524969517,91,27.97,-114.04,59.39,12.68
86,norman wells,75,CA,1524967200,55,65.28,-126.83,39.2,9.17
87,ayan,0,TR,1524969517,86,40.67,33.6,37.34,1.05
88,lasa,0,CY,1524967200,87,34.92,32.53,66.2,4.7
89,bambanglipuro,0,ID,1524969519,82,-7.95,110.28,83.69,9.55
90,kumluca,0,TR,1524969519,80,36.37,30.29,40.49,1.39
91,mabaruma,88,GY,1524969520,100,8.2,-59.78,76.22,7.65
92,wilmington,90,US,1524968100,71,39.75,-75.55,60.8,10.29
93,isangel,76,VU,1524969520,100,-19.55,169.27,75.68,8.21
94,severo-kurilsk,64,RU,1524969521,94,50.68,156.12,33.2,21.18
95,yellowknife,75,CA,1524967200,69,62.45,-114.38,39.2,9.17
96,cabo san lucas,40,MX,1524966240,50,22.89,-109.91,80.6,12.75
97,sibolga,20,ID,1524969522,82,1.74,98.78,78.29,2.51
98,ust-omchug,88,RU,1524969522,72,61.13,149.63,26.27,5.75
99,ajdabiya,0,LY,1524969523,65,30.75,20.22,68.93,10.33
100,hami,0,CN,1524969523,39,42.84,93.51,67.67,5.97
101,ribeira grande,44,PT,1524969523,100,38.52,-28.7,59.12,9.66
102,santa vitoria do palmar,64,BR,1524969524,98,-33.52,-53.37,69.83,5.97
103,galesong,20,ID,1524969000,55,-5.32,119.37,87.8,3.36
104,sehithwa,0,BW,1524969524,69,-20.47,22.7,55.07,4.07
105,nuuk,68,GL,1524966600,73,64.17,-51.74,21.2,9.17
106,visby,80,SE,1524966600,87,57.64,18.3,42.8,9.17
107,jerome,1,US,1524967020,13,34.75,-112.11,73.4,16.11
108,kaduqli,0,SD,1524969526,59,11.01,29.72,61.73,2.62
109,kavieng,76,PG,1524969527,100,-2.57,150.8,81.26,8.88
110,las juntas,32,CR,1524969527,91,10.28,-84.96,74.51,2.62
111,codrington,44,AU,1524969528,86,-28.95,153.24,66.5,5.86
112,victoria,75,BN,1524967200,79,5.28,115.24,87.8,2.24
113,chapais,90,CA,1524969000,92,49.78,-74.86,30.2,10.29
114,adrar,0,DZ,1524967200,28,27.87,-0.29,69.8,10.29
115,prince george,1,CA,1524968400,24,53.92,-122.75,59.0,11.41
116,camacha,40,PT,1524967200,58,33.08,-16.33,59.0,13.87
117,provideniya,8,RU,1524969530,100,64.42,-173.23,30.41,1.05
118,chokurdakh,56,RU,1524969531,100,70.62,147.9,22.58,6.64
119,leningradskiy,48,RU,1524969531,100,69.38,178.42,29.42,1.95
120,vila velha,75,BR,1524967200,83,-3.71,-38.6,82.4,10.29
121,san jorge,20,SV,1524969532,100,13.41,-88.34,80.0,3.4
122,batagay-alyta,80,RU,1524969532,88,67.8,130.41,17.72,6.2
123,marawi,92,PH,1524969533,100,8.0,124.29,73.88,3.18
124,airai,0,TL,1524969533,37,-8.93,125.41,84.77,1.95
125,dingle,0,PH,1524969534,58,11.0,122.67,88.82,9.78
126,madras,40,US,1524968100,75,44.63,-121.13,48.2,3.36
127,simoes,36,BR,1524969535,59,-7.6,-40.82,77.66,11.56
128,areosa,75,PT,1524967200,93,41.72,-8.86,48.2,2.24
129,hasanabad,75,IR,1524967200,62,35.37,51.24,60.8,20.8
130,mahajanga,0,MG,1524967200,83,-15.72,46.32,71.6,4.7
131,olga,1,US,1524967080,59,34.11,-118.17,68.0,11.41
132,kentau,0,KZ,1524969537,59,43.52,68.5,60.02,4.74
133,schluchtern,0,DE,1524966600,66,49.15,9.1,53.6,5.82
134,naze,8,NG,1524969538,95,5.43,7.07,73.97,4.74
135,mangan,0,IN,1524969538,64,27.5,88.54,42.11,1.61
136,mackenzie,1,CA,1524968160,25,55.34,-123.09,53.6,13.87
137,aykhal,32,RU,1524969539,83,65.95,111.51,33.2,7.65
138,ventspils,0,LV,1524968400,100,57.39,21.56,39.2,2.24
139,tigil,68,RU,1524969539,86,57.8,158.67,37.16,3.06
140,kamina,20,CD,1524969540,67,-8.74,25.0,64.52,4.74
141,dikson,92,RU,1524969540,97,73.51,80.55,21.77,15.82
142,berdychiv,0,UA,1524969540,92,49.89,28.58,51.92,10.67
143,comodoro rivadavia,0,AR,1524967200,65,-45.87,-67.48,41.0,6.93
144,shingu,20,JP,1524967200,68,33.72,135.99,68.0,8.05
145,kaitangata,92,NZ,1524969541,100,-46.28,169.85,48.86,11.23
146,port hardy,75,CA,1524967200,70,50.7,-127.42,48.2,11.41
147,mahbubabad,0,IN,1524969542,60,17.62,80.02,85.94,10.11
148,aksha,0,RU,1524969543,40,50.28,113.29,47.06,10.78
149,san patricio,12,PY,1524969543,80,-26.98,-56.83,73.79,2.17
150,omsukchan,80,RU,1524969543,82,62.53,155.8,27.89,5.97
151,rocha,92,UY,1524969544,98,-34.48,-54.34,66.77,5.53
152,matara,64,PE,1524969544,98,-13.74,-72.9,40.67,0.49
153,kruisfontein,20,ZA,1524969545,97,-34.0,24.73,52.64,7.99
154,kidal,0,ML,1524969545,23,18.44,1.41,75.59,7.76
155,khatanga,88,RU,1524969546,98,71.98,102.47,12.32,7.76
156,christchurch,92,NZ,1524967200,87,-43.53,172.64,51.8,8.05
157,bethel,75,US,1524966780,81,60.79,-161.76,42.8,13.87
158,saint george,0,GR,1524966600,82,39.45,22.34,55.4,4.7
159,ambulu,0,ID,1524969548,93,-8.35,113.61,84.23,9.44
160,hofn,36,IS,1524969549,98,64.25,-15.21,39.14,9.66
161,kavaratti,0,IN,1524969549,100,10.57,72.64,86.12,11.68
162,santa cruz de tenerife,0,ES,1524967200,93,28.47,-16.25,64.4,11.41
163,cururupu,68,BR,1524969550,95,-1.82,-44.87,77.12,4.74
164,thinadhoo,44,MV,1524969550,100,0.53,72.93,83.06,13.8
165,ilulissat,64,GL,1524966600,78,69.22,-51.1,15.8,16.11
166,atar,0,MR,1524969550,30,20.52,-13.05,61.82,7.65
167,arraial do cabo,20,BR,1524967200,88,-22.97,-42.02,69.8,4.7
168,sohag,0,EG,1524969551,46,26.55,31.7,60.11,2.62
169,havoysund,68,NO,1524966600,79,71.0,24.66,21.2,5.82
170,carnarvon,8,ZA,1524969552,71,-30.97,22.13,30.41,3.4
171,lumsden,20,CA,1524967200,25,50.65,-104.86,66.2,20.8
172,rawson,32,AR,1524969553,59,-43.3,-65.11,45.17,1.5
173,liman,0,RU,1524969553,92,45.78,47.23,53.27,7.2
174,ballina,20,IE,1524969554,100,54.11,-9.15,36.26,3.96
175,sinnamary,36,GF,1524969554,98,5.38,-52.96,79.46,9.22
176,bandarbeyla,20,SO,1524969554,100,9.49,50.81,81.62,12.01
177,avarua,20,CK,1524967200,57,-21.21,-159.78,78.8,9.17
178,lebedinyy,68,RU,1524969555,65,58.52,125.52,29.06,9.44
179,darhan,24,MN,1524969555,59,49.49,105.92,44.27,4.18
180,petropavlovsk-kamchatskiy,20,RU,1524967200,60,53.05,158.65,39.2,13.42
181,katsuura,0,JP,1524967200,35,33.93,134.5,71.6,5.82
182,kapaa,1,US,1524966960,50,22.08,-159.32,75.2,14.99
183,urengoy,68,RU,1524969557,96,65.96,78.37,33.29,13.47
184,garden city,90,US,1524968100,93,40.73,-73.63,55.4,3.36
185,dunedin,92,NZ,1524969558,100,-45.87,170.5,48.32,4.97
186,pisco,0,PE,1524967200,82,-13.71,-76.2,68.0,6.93
187,thompson,75,CA,1524967200,43,55.74,-97.86,51.8,5.82
188,nador,0,MA,1524967200,77,35.17,-2.93,60.8,4.7
189,hualmay,80,PE,1524969559,83,-11.1,-77.61,68.03,4.18
190,de-kastri,92,RU,1524969560,89,51.48,140.77,37.34,10.0
191,ust-ilimsk,80,RU,1524969560,55,57.96,102.73,45.08,3.62
192,gladstone,0,AU,1524969561,66,-23.84,151.26,78.29,11.45
193,inuvik,20,CA,1524967200,62,68.36,-133.71,23.0,10.29
194,sitka,0,US,1524969562,28,37.17,-99.65,69.56,17.16
195,walvis bay,0,NA,1524967200,82,-22.95,14.51,57.2,11.45
196,salamiyah,88,SY,1524969563,91,35.01,37.05,51.38,3.06
197,shu,0,KZ,1524969563,34,43.6,73.76,69.92,12.8
198,esperance,20,TT,1524967200,78,10.24,-61.45,77.0,9.17
199,epe,0,DE,1524966600,87,52.18,7.04,48.2,2.24
200,mwene-ditu,48,CD,1524969565,86,-7.01,23.45,64.34,2.06
201,mantua,75,IT,1524966900,77,45.16,10.79,64.4,5.82
202,atakpame,0,TG,1524969566,93,7.53,1.13,73.43,3.4
203,caxito,20,BR,1524967200,88,-22.65,-42.51,69.8,4.7
204,sorland,36,NO,1524969566,100,67.67,12.69,37.97,20.07
205,chertkovo,0,RU,1524969567,78,49.38,40.15,44.54,3.06
206,quatre cocos,75,MU,1524967200,57,-20.21,57.76,77.0,11.41
207,luderitz,0,NA,1524969568,94,-26.65,15.16,53.36,14.7
208,flin flon,0,CA,1524969568,35,54.77,-101.88,56.6,10.78
209,meshchovsk,32,RU,1524969569,80,54.32,35.29,38.51,2.95
210,irbeyskoye,0,RU,1524969569,81,55.64,95.45,47.42,5.53
211,lieksa,80,FI,1524969570,91,63.32,30.02,35.63,2.39
212,atambua,0,ID,1524969570,80,-9.11,124.89,86.48,4.74
213,alofi,0,NU,1524967200,61,-19.06,-169.92,82.4,10.29
214,immenstadt,0,DE,1524966600,81,47.56,10.22,53.6,6.93
215,sobolevo,100,RU,1524969572,97,54.43,31.9,43.46,3.06
216,staritsa,0,RU,1524969572,86,56.51,34.93,35.18,3.62
217,saskylakh,48,RU,1524969573,100,71.97,114.09,11.24,4.74
218,gewane,92,ET,1524969573,99,10.16,40.66,67.4,2.95
219,takoradi,20,GH,1524969573,99,4.89,-1.75,79.91,6.42
220,fairbanks,1,US,1524967080,36,64.84,-147.72,46.4,8.05
221,belyy yar,0,RU,1524967200,52,53.6,91.39,44.6,4.47
222,san juan,40,PH,1524967200,62,14.6,121.03,87.8,5.82
223,ubatuba,0,BR,1524967200,82,-23.43,-45.08,66.2,1.12
224,namibe,0,AO,1524969576,100,-15.19,12.15,76.49,7.2
225,leeds,40,GB,1524966600,93,53.8,-1.54,42.8,6.93
226,aguimes,75,ES,1524967200,68,27.91,-15.45,64.4,24.16
227,port lincoln,0,AU,1524969577,87,-34.72,135.86,65.87,11.45
228,namatanai,64,PG,1524969577,100,-3.66,152.44,80.72,2.62
229,nikolskoye,0,RU,1524967200,93,59.7,30.79,39.2,4.47
230,nhulunbuy,75,AU,1524967200,55,-12.18,136.78,86.0,11.41
231,terra nova,40,BR,1524967200,74,-12.41,-38.62,80.6,8.05
232,brae,48,GB,1524966600,86,60.4,-1.35,39.2,8.05
233,estevan,1,CA,1524968100,33,49.14,-102.99,60.8,17.22
234,bosaso,8,SO,1524969579,99,11.28,49.18,82.34,5.64
235,imbituba,40,BR,1524967200,88,-28.24,-48.67,75.2,8.05
236,tuktoyaktuk,20,CA,1524967200,77,69.44,-133.03,8.6,14.99
237,coos bay,90,US,1524968100,76,43.37,-124.22,53.6,13.87
238,new norfolk,20,AU,1524967200,33,-42.78,147.06,62.6,8.05
239,pevek,0,RU,1524969581,97,69.7,170.27,27.08,2.17
240,victor harbor,0,AU,1524967200,45,-35.55,138.62,66.2,9.17
241,negombo,20,LK,1524967800,78,7.21,79.83,80.6,5.82
242,mineiros,44,BR,1524969582,44,-17.57,-52.55,76.94,6.64
243,kashan,0,IR,1524967200,45,33.99,51.44,62.6,4.7
244,mogadishu,76,SO,1524969341,100,2.04,45.34,82.34,14.14
245,mocuba,80,MZ,1524969583,99,-16.84,36.99,69.29,3.62
246,napasar,0,IN,1524969398,35,27.97,73.56,85.22,4.63
247,zhuhai,20,CN,1524967200,21,40.71,112.04,69.8,11.18
248,kensington,90,CA,1524967200,100,46.44,-63.64,55.4,3.36
249,la ronge,20,CA,1524967200,24,55.1,-105.3,71.6,13.87
250,erattupetta,40,IN,1524969000,94,9.69,76.78,82.4,2.73
251,hasaki,40,JP,1524967200,50,35.73,140.83,75.2,10.29
252,bakchar,44,RU,1524969586,76,57.02,82.07,46.97,3.4
253,santa marta,24,CO,1524969391,97,11.24,-74.21,80.72,21.52
254,severo-yeniseyskiy,8,RU,1524969587,60,60.37,93.04,44.09,3.4
255,kapit,8,MY,1524969587,83,2.02,112.94,82.52,2.95
256,henties bay,0,NA,1524969588,100,-22.12,14.28,59.84,5.3
257,sept-iles,90,CA,1524967200,100,50.2,-66.38,33.8,2.28
258,vaitape,12,PF,1524969588,100,-16.52,-151.75,83.06,3.96
259,pozo colorado,0,PY,1524969589,74,-23.49,-58.8,75.5,2.73
260,mount isa,8,AU,1524967200,17,-20.73,139.49,84.2,13.87
261,charters towers,0,AU,1524969589,80,-20.07,146.27,76.04,10.45
262,east london,8,ZA,1524969590,100,-33.02,27.91,64.52,6.42
263,pacific grove,75,US,1524967620,71,36.62,-121.92,60.8,10.29
264,vestmanna,32,FO,1524966600,86,62.16,-7.17,37.4,4.7
265,vestmannaeyjar,64,IS,1524969591,100,63.44,-20.27,36.62,7.99
266,umea,68,SE,1524966600,100,63.83,20.26,28.4,2.24
267,maputo,20,MZ,1524967200,78,-25.97,32.57,73.4,10.29
268,humaita,20,AR,1524967200,93,-24.93,-65.37,64.4,1.61
269,smiltene,8,LV,1524969592,84,57.42,25.9,37.25,2.73
270,idah,12,NG,1524969592,94,7.11,6.73,76.67,8.43
271,otyniya,0,UA,1524967200,100,48.74,24.86,44.6,2.24
272,fukue,20,JP,1524967200,68,35.03,136.69,68.0,4.7
273,kisangani,32,CD,1524969593,99,0.52,25.21,71.99,2.06
274,ossora,88,RU,1524969594,99,59.24,163.07,31.94,9.89
275,seymchan,48,RU,1524969594,88,62.93,152.39,29.87,10.22
276,puerto palomas,1,US,1524966780,14,31.78,-107.63,78.8,4.7
277,tilichiki,88,RU,1524969595,96,60.47,166.1,33.74,1.72
278,cayenne,75,GF,1524969000,100,4.94,-52.33,75.2,7.2
279,ibanda,44,UG,1524969596,91,0.33,30.08,61.1,1.83
280,anadyr,90,RU,1524967200,92,64.73,177.51,21.2,6.71
281,bathsheba,75,BB,1524967200,78,13.22,-59.52,78.8,21.92
282,markova,40,RU,1524967200,86,52.21,104.21,39.2,6.71
283,rabo de peixe,40,PT,1524967200,66,37.8,-25.58,53.6,6.93
284,ocampo,64,PH,1524969597,90,13.56,123.37,83.15,6.42
285,phangnga,20,TH,1524967200,74,8.45,98.53,86.0,9.17
286,abashiri,0,JP,1524967200,23,44.01,144.25,62.6,4.7
287,zhigansk,0,RU,1524969598,57,66.77,123.37,24.74,11.23
288,vao,0,EE,1524969598,91,59.1,26.19,37.16,2.62
289,parchim,75,DE,1524964800,87,53.43,11.85,50.0,1.12
290,sur,0,OM,1524969599,78,22.57,59.53,85.31,6.2
291,puerto escondido,8,MX,1524969599,100,15.86,-97.07,84.14,2.95
292,jawhar,20,IN,1524969600,79,19.91,73.23,80.27,3.62
293,flinders,75,AU,1524967200,87,-34.58,150.85,60.8,9.17
294,te anau,92,NZ,1524969600,100,-45.41,167.72,44.54,3.74
295,itarema,48,BR,1524969601,95,-2.92,-39.92,74.96,5.19
296,lamu,92,ID,1524969601,100,0.57,122.3,74.6,2.73
297,kenai,90,US,1524967620,87,60.55,-151.26,44.6,9.17
298,artyom,0,RU,1524967200,42,43.36,132.19,62.6,17.9
299,labuhan,68,ID,1524969602,80,-2.54,115.51,83.6,2.95
300,ivolginsk,75,RU,1524967200,48,51.75,107.28,42.8,4.47
301,tambovka,0,UA,1524969603,67,46.93,35.45,47.69,6.76
302,hilo,90,US,1524966960,88,19.71,-155.08,71.6,13.87
303,marzuq,0,YE,1524969603,94,14.4,46.47,58.22,2.39
304,souillac,90,FR,1524967200,93,45.6,-0.6,50.0,2.24
305,davila,20,PH,1524967200,66,18.47,120.58,89.6,6.93
306,mogwase,56,ZA,1524969605,72,-25.28,27.22,49.49,2.62
307,mahebourg,75,MU,1524967200,57,-20.41,57.7,77.0,11.41
308,bitam,92,GA,1524969605,99,2.08,11.49,71.27,1.83
309,shache,0,CN,1524969606,33,38.42,77.24,63.08,4.74
310,ketchikan,1,US,1524966960,34,55.34,-131.65,53.6,13.87
311,anloga,20,GH,1524967200,88,5.79,0.9,82.4,9.17
312,iralaya,88,HN,1524969607,88,15.0,-83.23,80.9,6.31
313,gat,8,SN,1524969608,69,14.69,-16.54,68.21,13.24
314,paka,0,HR,1524967200,93,45.29,18.06,60.8,6.93
315,tame,92,CO,1524969608,100,6.46,-71.72,59.66,2.06
316,oras,76,PH,1524969609,100,12.14,125.44,79.46,6.31
317,estelle,1,US,1524968400,40,32.87,-97.01,78.8,5.82
318,san cristobal,75,EC,1524967200,93,-0.39,-78.55,50.0,2.24
319,tomakomai,0,JP,1524967200,51,42.65,141.6,59.0,18.34
320,pankrushikha,0,RU,1524969610,84,53.83,80.35,51.11,4.41
321,soyo,92,AO,1524969611,97,-6.13,12.37,77.57,3.4
322,akureyri,0,IS,1524967200,100,65.68,-18.09,28.4,3.36
323,zaraza,32,VE,1524969612,86,9.35,-65.33,76.58,8.1
324,reichenau,0,DE,1524966600,93,51.25,13.96,53.6,4.7
325,herat,0,AF,1524964500,67,34.35,62.22,60.8,2.24
326,hamilton,92,BM,1524969316,94,32.3,-64.78,71.54,26.66
327,skiathos,0,GR,1524966600,82,39.16,23.49,55.4,4.7
328,hay river,75,CA,1524967200,74,60.82,-115.79,37.4,4.7
329,lensk,32,RU,1524969615,49,60.71,114.91,35.81,6.76
330,xichang,24,CN,1524969615,37,27.88,102.25,67.94,1.5
331,qaqortoq,24,GL,1524966600,74,60.72,-46.03,33.8,9.17
332,boddam,80,GB,1524966600,93,57.47,-1.78,35.6,3.36
333,sao joao da barra,8,BR,1524969616,100,-21.64,-41.05,77.21,8.1
334,seoul,0,KR,1524967200,30,37.57,126.98,69.8,5.82
335,ferkessedougou,48,CI,1524969617,87,9.6,-5.2,74.69,4.85
336,magoula,0,GR,1524966600,49,38.08,23.52,69.8,13.87
337,gamba,0,CN,1524969618,79,28.28,88.52,22.94,3.18
338,kasempa,8,ZM,1524969618,87,-13.46,25.83,56.42,6.98
339,bagdarin,24,RU,1524969618,35,54.44,113.59,38.69,5.86
340,bud,92,NO,1524966600,86,62.91,6.91,39.2,4.7
341,suoyarvi,56,RU,1524969619,96,62.08,32.35,35.63,2.73
342,kanniyakumari,8,IN,1524969619,100,8.08,77.57,83.78,4.85
343,busayra,0,JO,1524969620,80,30.74,35.61,51.74,2.06
344,vizinga,32,RU,1524969620,92,61.08,50.08,34.01,3.62
345,deputatskiy,32,RU,1524969620,88,69.3,139.9,22.67,7.43
346,carballo,0,ES,1524967200,93,43.21,-8.69,46.4,6.93
347,katherine,0,AU,1524967200,31,-14.47,132.26,87.8,8.05
348,salalah,40,OM,1524966600,83,17.01,54.1,82.4,5.82
349,agogo,12,GH,1524969622,94,6.8,-1.08,73.34,4.29
350,iqaluit,40,CA,1524967200,77,63.75,-68.52,5.0,4.7
351,dryden,1,CA,1524967200,33,49.79,-92.84,44.6,8.05
352,amet,0,IN,1524969623,36,25.3,73.93,90.17,11.79
353,milkovo,0,BG,1524967200,76,41.53,24.68,57.2,4.7
354,nanortalik,8,GL,1524969624,97,60.14,-45.24,28.79,24.87
355,oranjestad,20,AW,1524967200,83,12.52,-70.03,80.6,20.8
356,kloulklubed,40,PW,1524966780,74,7.04,134.26,87.8,5.82
357,vila franca do campo,40,PT,1524967200,66,37.72,-25.43,53.6,6.93
358,tezu,32,IN,1524969625,61,27.93,96.16,71.09,1.61
359,punta alta,0,AR,1524967200,73,-27.46,-55.82,77.0,3.36
360,ambositra,64,MG,1524969626,100,-20.53,47.24,50.3,2.17
361,ixtapa,5,MX,1524966300,100,20.71,-105.21,77.0,3.36
362,lorengau,56,PG,1524969626,100,-2.02,147.27,80.81,9.55
363,cloquet,1,US,1524968220,43,46.72,-92.46,42.8,3.36
364,nome,1,US,1524968100,72,30.04,-94.42,68.0,4.7
365,mehamn,20,NO,1524969627,83,71.03,27.85,22.31,5.3
366,lincoln,80,GB,1524966600,93,53.23,-0.54,44.6,8.05
367,sola,0,NO,1524966600,86,58.89,5.65,41.0,6.93
368,tateyama,0,JP,1524967200,24,36.66,137.31,80.6,5.82
369,san policarpo,76,PH,1524969629,100,12.18,125.51,79.46,6.31
370,jalu,64,LY,1524969629,27,29.03,21.55,75.14,1.16
371,tuatapere,92,NZ,1524969629,100,-46.13,167.69,49.04,13.47
372,poronaysk,32,RU,1524969630,60,49.22,143.1,52.82,11.68
373,parana,90,BR,1524967200,94,-7.52,-72.89,75.2,3.36
374,bien unido,20,PH,1524967200,62,10.14,124.38,87.8,10.29
375,makakilo city,90,US,1524967020,47,21.35,-158.09,77.0,6.93
376,kamaishi,0,JP,1524967200,42,39.28,141.86,68.0,8.05
377,abu samrah,64,SY,1524969632,75,35.3,37.18,62.36,2.95
378,zemio,44,CF,1524969632,81,5.02,25.13,72.62,3.96
379,lulea,8,SE,1524966600,86,65.58,22.15,30.2,3.96
380,adre,0,TD,1524969633,54,13.47,22.2,60.02,4.74
381,lingao,24,CN,1524969633,82,19.91,109.69,84.5,4.97
382,the valley,20,AI,1524967200,69,18.22,-63.06,78.8,13.87
383,tautira,75,PF,1524969000,66,-17.73,-149.15,84.2,9.17
384,acajutla,8,SV,1524969634,88,13.59,-89.83,76.85,0.6
385,taoudenni,0,ML,1524969635,30,22.68,-3.98,68.57,10.78
386,avera,1,US,1524966900,59,33.19,-82.53,69.8,5.82
387,qasigiannguit,64,GL,1524966600,78,68.82,-51.19,15.8,16.11
388,bay roberts,90,CA,1524967200,100,47.58,-53.28,59.0,19.46
389,laredo,1,US,1524968100,56,27.51,-99.51,73.4,11.41
390,ponta do sol,88,BR,1524969637,60,-20.63,-46.0,71.0,5.64
391,miguel alves,64,BR,1524969637,97,-4.17,-42.89,73.61,2.17
392,youghal,20,IE,1524967200,93,51.95,-7.85,39.2,6.93
393,ahipara,92,NZ,1524969638,98,-35.17,173.16,64.88,14.47
394,lata,12,IN,1524969638,73,30.78,78.62,57.41,1.72
395,saint-joseph,0,FR,1524967200,93,43.56,6.97,60.8,3.36
396,altay,32,CN,1524969639,87,47.83,88.13,35.81,2.17
397,palu,44,ID,1524969640,74,-0.9,119.87,77.03,1.39
398,ostrovnoy,8,RU,1524969640,93,68.05,39.51,25.28,13.02
399,eureka,90,US,1524966900,87,40.8,-124.16,53.6,8.05
400,college,1,US,1524967080,36,64.86,-147.8,46.4,8.05
401,kichera,44,RU,1524969641,67,55.93,110.1,35.54,2.28
402,ucluelet,92,CA,1524969642,100,48.94,-125.55,44.27,2.06
403,cidreira,0,BR,1524969642,90,-30.17,-50.22,68.75,4.07
404,fort dix,90,US,1524968100,82,40.03,-74.62,57.2,9.17
405,maholi,0,IN,1524969643,53,27.65,80.48,84.05,11.79
406,curup,32,ID,1524969643,85,-3.47,102.53,78.74,1.95
407,houma,0,CN,1524969644,51,35.63,111.36,74.24,4.07
408,ust-nera,12,RU,1524969644,75,64.57,143.24,26.72,2.73
409,santa isabel,64,CO,1524969645,99,4.71,-75.1,63.44,2.06
410,constitucion,75,MX,1524966000,22,23.99,-104.67,75.2,11.41
411,essenbach,20,DE,1524966600,87,48.32,11.23,53.6,6.93
412,deloraine,0,CA,1524969646,31,49.18,-100.5,58.22,18.72
413,grindavik,0,IS,1524969000,74,63.84,-22.43,35.6,6.93
414,champerico,0,MX,1524969647,78,16.38,-93.6,71.36,2.73
415,arawa,32,NG,1524969647,94,7.05,3.9,76.76,2.95
416,clyde river,1,CA,1524967200,71,70.47,-68.59,5.0,18.34
417,zhireken,8,RU,1524969648,36,52.82,117.29,46.61,3.74
418,waterloo,90,CA,1524967200,72,43.47,-80.52,33.8,12.75
419,huilong,92,CN,1524969649,100,28.89,110.18,66.77,2.73
420,katobu,68,ID,1524969649,85,-4.94,122.53,85.49,3.29
421,palm city,0,PK,1524967200,44,33.58,73.11,77.0,2.24
422,kiruna,64,SE,1524966600,92,67.86,20.23,30.2,5.82
423,porbandar,0,IN,1524969477,86,21.64,69.61,81.62,11.23
424,cartersville,1,US,1524966960,63,34.17,-84.8,69.8,8.21
425,saldanha,92,PT,1524969652,87,41.42,-6.55,40.4,3.96
426,kuznechnoye,48,RU,1524969652,91,61.12,29.87,36.17,4.63
427,caravelas,92,BR,1524969653,100,-17.73,-39.27,77.84,12.91
428,ayame,24,CI,1524969653,100,5.61,-3.16,77.39,4.74
429,karratha,0,AU,1524969654,20,-20.74,116.85,93.23,12.91
430,ajaccio,0,FR,1524967200,87,41.93,8.74,60.8,5.82
431,maposeni,80,TZ,1524969654,95,-10.58,35.4,62.18,2.39
432,porgera,92,PG,1524969655,100,-5.46,143.15,56.42,0.04
433,kiunga,92,PG,1524969655,88,-6.12,141.3,78.11,2.73
434,linxia,8,CN,1524969655,52,35.6,103.21,55.07,4.97
435,ponta delgada,40,PT,1524967200,66,37.73,-25.67,53.6,6.93
436,coolum beach,56,AU,1524969656,91,-26.53,153.09,70.64,9.22
437,broken hill,0,AU,1524969614,46,-31.97,141.45,73.52,9.33
438,port blair,48,IN,1524969657,100,11.67,92.75,83.69,8.66
439,qitaihe,20,CN,1524969657,41,45.77,131.01,72.08,9.55
440,kalmunai,8,LK,1524969658,91,7.42,81.82,82.79,4.07
441,verkhoyansk,88,RU,1524969658,76,67.55,133.39,25.64,9.44
442,pandhana,0,IN,1524969658,38,21.73,76.26,88.1,7.31
443,gorzow wielkopolski,32,PL,1524969659,67,52.74,15.23,50.03,2.73
444,tres picos,0,MX,1524969659,78,16.23,-93.58,71.36,2.73
445,abonnema,12,NG,1524969660,96,4.71,6.79,73.34,3.18
446,torbat-e jam,0,IR,1524969660,40,35.24,60.63,59.21,2.39
447,la palma,88,CO,1524969661,100,5.36,-74.39,65.24,2.06
448,nuevo progreso,40,US,1524968100,73,26.05,-97.95,71.6,3.36
449,jumla,0,NP,1524969662,82,29.28,82.18,41.57,1.95
450,saint-georges,92,CA,1524969663,91,46.12,-70.67,43.46,0.72
451,vanimo,92,PG,1524969663,100,-2.67,141.3,79.82,5.64
452,minden,90,US,1524968100,34,38.95,-119.77,53.6,17.22
453,fortuna,0,ES,1524967200,100,38.18,-1.13,51.8,3.36
454,manokwari,24,ID,1524969664,100,-0.87,134.08,82.61,5.97
455,cairns,40,AU,1524967200,58,-16.92,145.77,82.4,21.92
456,port shepstone,88,ZA,1524969665,92,-30.74,30.45,66.32,7.65
457,adelaide,0,AU,1524967200,45,-34.93,138.6,66.2,9.17
458,osorno,80,CL,1524969665,81,-40.57,-73.14,44.36,7.65
459,mizque,20,BO,1524969666,94,-17.94,-65.34,48.77,2.95
460,nago,90,IT,1524966900,93,45.88,10.89,64.4,9.17
461,doha,0,QA,1524967200,61,25.29,51.53,80.6,11.41
462,ewa beach,90,US,1524967020,47,21.32,-158.01,77.0,6.93
463,svetlaya,76,RU,1524969667,64,46.54,138.33,48.32,18.05
464,lithakia,20,GR,1524966600,52,37.72,20.83,68.0,15.37
465,cheremukhovo,48,RU,1524969667,88,56.23,46.23,40.31,8.77
466,kysyl-syr,0,RU,1524969668,50,63.9,122.77,27.71,12.24
467,mersing,20,MY,1524969668,85,2.43,103.84,87.11,5.97
468,kilindoni,0,TZ,1524969669,98,-7.91,39.67,82.16,11.23
469,lumeje,0,AO,1524969669,71,-11.56,20.78,57.59,2.73
470,gdov,76,RU,1524969669,89,58.74,27.82,35.99,1.39
471,novobiryusinskiy,0,RU,1524969670,46,56.96,97.71,49.67,3.51
472,lufilufi,75,WS,1524967200,66,-13.87,-171.6,89.6,6.93
473,north bend,90,US,1524968100,76,43.41,-124.22,53.6,13.87
474,price,1,US,1524966780,8,39.6,-110.81,71.6,16.11
475,taua,75,SL,1524967200,78,8.79,-12.72,78.8,6.93
476,leh,32,IN,1524969672,98,34.16,77.58,14.21,2.06
477,aklavik,20,CA,1524967200,62,68.22,-135.01,23.0,10.29
478,san jose,12,PH,1524969475,59,15.79,120.99,87.92,2.62
479,khandyga,80,RU,1524969674,53,62.65,135.58,38.78,4.85
480,pyapon,8,MM,1524969674,77,16.29,95.68,88.64,3.62
481,atbasar,24,KZ,1524969675,84,51.81,68.36,53.27,14.47
482,myre,64,SE,1524966600,96,62.25,17.37,32.0,2.24
483,karakulino,88,RU,1524969675,90,56.01,53.71,40.76,30.47
484,zambezi,0,ZM,1524969675,71,-13.55,23.12,57.77,3.74
485,agirish,92,RU,1524969676,99,61.92,63.02,36.26,4.29
486,weymouth,44,US,1524966960,71,42.22,-70.94,60.8,11.41
487,maymyo,20,MM,1524965400,78,22.03,96.47,78.8,3.36
488,parabel,64,RU,1524969677,79,58.71,81.5,42.11,3.18
489,poum,0,MK,1524969678,87,41.28,20.71,46.52,1.72
490,toowoomba,40,AU,1524967200,40,-27.56,151.95,73.4,10.29
491,axim,12,GH,1524969678,98,4.87,-2.24,82.25,10.22
492,stephenville,1,US,1524968100,35,32.22,-98.2,71.6,5.82
493,puerto del rosario,40,ES,1524967200,63,28.5,-13.86,62.6,23.04
494,itoman,75,JP,1524967200,60,26.12,127.67,77.0,4.7
495,kieta,92,PG,1524969680,99,-6.22,155.63,81.8,2.95
496,tiarei,75,PF,1524969000,66,-17.53,-149.33,84.2,9.17
497,sabha,0,LY,1524969681,26,27.03,14.43,66.32,2.95
498,matagami,88,NG,1524969681,94,9.67,8.4,71.0,3.62
499,plavsk,0,RU,1524969682,77,53.71,37.29,40.04,4.97
500,sorong,64,ID,1524969682,100,-0.86,131.25,82.16,9.66
501,maragogi,88,BR,1524969682,100,-9.01,-35.22,75.95,5.41
502,amga,88,RU,1524969683,61,60.89,131.98,32.03,11.68
503,naryan-mar,0,RU,1524969683,88,67.67,53.09,24.29,6.08
504,santa luzia,0,BR,1524967200,77,-19.77,-43.85,66.2,6.93
505,bozeman,1,US,1524968100,19,45.68,-111.04,69.8,12.75
506,erzincan,20,TR,1524966600,61,39.75,39.49,50.0,2.24
507,illapel,48,CL,1524969414,95,-31.63,-71.17,51.56,1.95
508,sarangani,92,PH,1524969685,100,5.4,125.46,79.91,7.09
509,villa carlos paz,0,AR,1524967200,77,-31.42,-64.5,68.0,3.36
510,mumford,12,GH,1524969686,93,5.26,-0.76,77.39,6.76
511,lodja,48,CD,1524969687,95,-3.52,23.6,70.46,2.28
512,nemuro,0,JP,1524967200,29,43.32,145.57,60.8,6.93
513,camopi,92,GF,1524969688,99,3.17,-52.33,73.07,2.06
514,prince rupert,1,CA,1524967200,66,54.32,-130.32,48.2,12.75
515,thunder bay,5,CA,1524967200,44,48.41,-89.26,37.4,3.18
516,morwa,0,IN,1524969689,63,22.9,73.84,84.14,7.43
517,benton harbor,1,US,1524968220,48,42.12,-86.45,39.2,6.93
518,kem,76,UG,1524969689,99,2.68,33.77,64.79,2.73
519,novokuznetsk,24,RU,1524969689,86,53.76,87.14,49.04,5.86
520,sena madureira,8,BR,1524969690,90,-9.07,-68.66,76.94,1.95
521,goderich,56,CA,1524969690,71,43.74,-81.71,34.46,13.13
522,san buenaventura,24,MX,1524969690,62,27.06,-101.55,65.87,5.97
523,merritt island,1,US,1524966960,72,28.54,-80.67,73.4,4.7
524,oktyabrskiy,0,RU,1524967200,74,55.61,37.97,41.0,6.71
525,ilmajoki,0,FI,1524966600,100,62.73,22.58,30.2,3.36
526,basoko,48,CD,1524969692,96,1.23,23.61,72.62,2.62
527,kondinskoye,92,RU,1524969692,96,59.65,67.41,42.56,8.66
528,sistranda,75,NO,1524966600,75,63.73,8.83,41.0,6.93
529,maniitsoq,68,GL,1524969693,92,65.42,-52.9,16.46,9.66
530,samarai,76,PG,1524969693,99,-10.62,150.67,82.34,15.26
531,monrovia,75,LR,1524967200,94,6.33,-10.8,73.4,4.97
532,kaitong,36,CN,1524969695,45,44.81,123.15,65.42,23.87
533,laguna,75,MX,1524966180,42,27.52,-110.01,80.6,6.93
534,bulgan,80,MN,1524969696,58,48.81,103.53,38.33,4.97
535,yerbogachen,0,RU,1524969696,61,61.28,108.01,41.93,6.42
536,mujiayingzi,36,CN,1524969697,42,42.12,118.78,73.61,8.66
537,kuntaur,24,GM,1524969697,36,13.67,-14.89,76.76,9.78
538,berja,56,ES,1524967200,62,36.85,-2.95,59.0,24.16
539,aksu,90,KZ,1524967200,100,52.04,76.93,46.4,6.71
540,pakenham,75,AU,1524967200,77,-38.08,145.48,60.8,12.75
541,brenham,1,US,1524968100,60,30.17,-96.4,69.8,5.97
542,santa fe,8,AR,1524969700,94,-31.62,-60.7,70.91,8.43
543,nizhniy kuranakh,68,RU,1524969700,65,58.84,125.49,29.06,9.44
544,fengxian,0,CN,1524969701,36,33.91,106.52,71.09,2.73
545,nanao,0,JP,1524967200,25,37.05,136.95,80.6,18.34
546,teguise,32,ES,1524969702,99,29.06,-13.56,61.19,18.72
547,boundiali,8,CI,1524969702,80,9.53,-6.48,74.15,4.97
548,karatuzskoye,0,RU,1524969703,73,53.61,92.87,47.33,3.62
549,cafarnaum,64,BR,1524969704,81,-11.69,-41.47,68.48,10.89
550,strezhevoy,0,RU,1524967200,60,60.73,77.6,41.0,6.71
551,kailua,75,US,1524967020,56,21.39,-157.74,77.0,13.87
552,bachhraon,12,IN,1524969705,47,28.93,78.22,83.96,9.44
553,san quintin,20,PH,1524967200,66,17.54,120.52,89.6,6.93
554,kurri kurri,75,AU,1524967920,88,-32.82,151.48,62.6,11.41
555,chifeng,36,CN,1524969706,42,42.27,118.96,73.61,8.66
556,lakatoro,76,VU,1524969706,100,-16.11,167.42,78.38,1.83
557,verkhniy rohachyk,0,UA,1524969707,85,47.25,34.34,49.31,2.73
558,turbat,0,PK,1524969707,63,26.0,63.05,79.19,3.74
559,acapulco,5,MX,1524966180,78,16.86,-99.88,80.6,4.7
560,snezhnogorsk,75,RU,1524967200,100,69.19,33.23,30.2,6.71
561,lipin bor,0,RU,1524969708,88,60.26,37.97,36.08,10.45
562,novikovo,0,UA,1524969708,100,45.05,34.56,45.62,3.51
563,noumea,90,NC,1524969000,69,-22.28,166.46,78.8,4.7
564,mishkino,20,RU,1524967200,60,56.22,46.62,42.8,11.18
565,bogalusa,40,US,1524968100,77,30.79,-89.85,68.0,3.36
566,meulaboh,8,ID,1524969709,100,4.14,96.13,83.69,2.28
567,sao miguel do araguaia,92,BR,1524969710,62,-13.28,-50.16,80.09,6.64
568,saint-pierre,92,FR,1524967200,100,48.95,4.24,48.2,10.29
569,los llanos de aridane,0,ES,1524967200,68,28.66,-17.92,64.4,13.87
570,kuala lipis,36,MY,1524969711,92,4.19,102.05,82.34,4.07
571,grenada,1,US,1524966780,72,33.77,-89.81,64.4,7.99
572,yabrud,12,SY,1524967200,87,33.97,36.66,55.4,8.05
573,san pedro,32,AR,1524969713,94,-33.68,-59.66,68.39,8.43
574,suzun,64,RU,1524969714,94,53.78,82.32,49.76,4.29
575,teacapan,20,MX,1524969714,70,22.54,-105.74,75.23,2.39
576,helong,88,CN,1524969715,91,25.94,116.13,72.17,4.18
577,ambilobe,0,MG,1524969715,68,-13.19,49.05,78.2,11.68
